longitude,latitude,place
-83.00258149999999,39.9713071,Char Bar
-83.00052199999999,39.949964,Claddagh Irish Pub
-82.9949389,39.9574325,16-Bit Bar+Arcade
-82.9984504,40.0003365,Fourth Street Bar & Grill
-83.0198066,40.0636483,Bob's Bar
-83.00705579999999,39.9973679,The Big Bar & Grill
-83.03047719999999,39.99171819999999,The Tree Bar
-82.9142928,40.04907830000001,Fado Irish Pub Columbus
-83.00418499999999,39.981818,MOUTON
-83.00459939999999,39.9698829,Big Bang Dueling Piano Bar
